<?xml version="1.0" encoding="utf-8"?><kml xmlns="http://www.opengis.net/kml/2.2" xmlns:xsi="http://www.w3.org/2001/XMLSchema-instance" xmlns:kmlx="http://www.google.com/kml/ext/2.2" xmlns:atom="http://www.w3.org/2005/Atom" xmlns:gpxx="http://www.garmin.com/xmlschemas/GpxExtensions/v3"><Document><Style id="point"><IconStyle><scale>0.9</scale><Icon><href>http://maps.google.com/mapfiles/kml/shapes/placemark_circle.png</href></Icon></IconStyle></Style><Folder><name>Waypoints</name><Placemark><name>001</name><description>09-DEC-12 9:07:34AM</description><Style><IconStyle><scale>0.9</scale><Icon><href>http://maps.google.com/mapfiles/kml/pushpin/blue-pushpin.png</href></Icon></IconStyle></Style><Point><extrude>0</extrude><altitudeMode>clampToGround</altitudeMode><coordinates>-72.051712470129132,18.295198157429695,1034.256103515625</coordinates></Point></Placemark><Placemark><name>002</name><description>09-DEC-12 10:42:48AM</description><Style><IconStyle><scale>0.9</scale><Icon><href>http://maps.google.com/mapfiles/kml/pushpin/blue-pushpin.png</href></Icon></IconStyle></Style><Point><extrude>0</extrude><altitudeMode>clampToGround</altitudeMode><coordinates>-72.056070305407047,18.305639242753386</coordinates></Point></Placemark><Placemark><name>003</name><description>09-DEC-12 11:21:24AM</description><Style><IconStyle><scale>0.9</scale><Icon><href>http://maps.google.com/mapfiles/kml/pushpin/blue-pushpin.png</href></Icon></IconStyle></Style><Point><extrude>0</extrude><altitudeMode>clampToGround</altitudeMode><coordinates>-72.057736795395613,18.315882347524166,1430.556884765625</coordinates></Point></Placemark><Placemark><name>Bel Air (Aprx)</name><description>Bel Air (Aprx)</description><Style><IconStyle><scale>0.9</scale><Icon><href>http://maps.google.com/mapfiles/kml/pushpin/blue-pushpin.png</href></Icon></IconStyle></Style><Point><extrude>0</extrude><altitudeMode>clampToGround</altitudeMode><coordinates>-72.054461063817143,18.27499995008111,-0.1143798828125</coordinates></Point></Placemark><Placemark><name>Bell Air M</name><description>09-DEC-12 6:33:48AM</description><Style><IconStyle><scale>0.9</scale><Icon><href>http://maps.google.com/mapfiles/kml/pushpin/blue-pushpin.png</href></Icon></IconStyle></Style><Point><extrude>0</extrude><altitudeMode>clampToGround</altitudeMode><coordinates>-72.052283864468336,18.265892425552011,564.17529296875</coordinates></Point></Placemark><Placemark><name>Belle Anse Por</name><description>Belle Anse Port</description><Style><IconStyle><scale>0.9</scale><Icon><href>http://maps.google.com/mapfiles/kml/pushpin/blue-pushpin.png</href></Icon></IconStyle></Style><Point><extrude>0</extrude><altitudeMode>clampToGround</altitudeMode><coordinates>-72.067759707570076,18.235888900235295,-0.1143798828125</coordinates></Point></Placemark><Placemark><name>Bois Conte (Ap</name><description>Bois Conte (Aprx)</description><Style><IconStyle><scale>0.9</scale><Icon><href>http://maps.google.com/mapfiles/kml/pushpin/blue-pushpin.png</href></Icon></IconStyle></Style><Point><extrude>0</extrude><altitudeMode>clampToGround</altitudeMode><coordinates>-72.050783419981599,18.29166661016643,-0.1143798828125</coordinates></Point></Placemark><Placemark><name>Bois De Hommes</name><description>Bois De Hommes (Aprx)</description><Style><IconStyle><scale>0.9</scale><Icon><href>http://maps.google.com/mapfiles/kml/pushpin/blue-pushpin.png</href></Icon></IconStyle></Style><Point><extrude>0</extrude><altitudeMode>clampToGround</altitudeMode><coordinates>-72.058333251625299,18.312499998137355,-0.1143798828125</coordinates></Point></Placemark><Placemark><name>Bois Paul (Apr</name><description>Bois Paul (Aprx)</description><Style><IconStyle><scale>0.9</scale><Icon><href>http://maps.google.com/mapfiles/kml/pushpin/blue-pushpin.png</href></Icon></IconStyle></Style><Point><extrude>0</extrude><altitudeMode>clampToGround</altitudeMode><coordinates>-72.070938879624009,18.32501107826829,-0.1143798828125</coordinates></Point></Placemark><Placemark><name>Fermate</name><description>Fermate</description><Style><IconStyle><scale>0.9</scale><Icon><href>http://maps.google.com/mapfiles/kml/pushpin/blue-pushpin.png</href></Icon></IconStyle></Style><Point><extrude>0</extrude><altitudeMode>clampToGround</altitudeMode><coordinates>-72.312526702880859,18.485239204019308,-0.1143798828125</coordinates></Point></Placemark><Placemark><name>Footpath</name><description>Footpath</description><Style><IconStyle><scale>0.9</scale><Icon><href>http://maps.google.com/mapfiles/kml/pushpin/blue-pushpin.png</href></Icon></IconStyle></Style><Point><extrude>0</extrude><altitudeMode>clampToGround</altitudeMode><coordinates>-72.023569392040372,18.34935556165874,-0.1143798828125</coordinates></Point></Placemark><Placemark><name>Footpath Switc</name><description>Footpath Switchback</description><Style><IconStyle><scale>0.9</scale><Icon><href>http://maps.google.com/mapfiles/kml/pushpin/blue-pushpin.png</href></Icon></IconStyle></Style><Point><extrude>0</extrude><altitudeMode>clampToGround</altitudeMode><coordinates>-72.001014947891235,18.343411451205611,-0.1143798828125</coordinates></Point></Placemark><Placemark><name>Footpath.1</name><description>Footpath</description><Style><IconStyle><scale>0.9</scale><Icon><href>http://maps.google.com/mapfiles/kml/pushpin/blue-pushpin.png</href></Icon></IconStyle></Style><Point><extrude>0</extrude><altitudeMode>clampToGround</altitudeMode><coordinates>-72.027153158560395,18.350811749696732,-0.1143798828125</coordinates></Point></Placemark><Placemark><name>Footpath.2</name><description>Footpath</description><Style><IconStyle><scale>0.9</scale><Icon><href>http://maps.google.com/mapfiles/kml/pushpin/blue-pushpin.png</href></Icon></IconStyle></Style><Point><extrude>0</extrude><altitudeMode>clampToGround</altitudeMode><coordinates>-72.033680062741041,18.347791414707899,-0.1143798828125</coordinates></Point></Placemark><Placemark><name>Footpath.3</name><description>Footpath</description><Style><IconStyle><scale>0.9</scale><Icon><href>http://maps.google.com/mapfiles/kml/pushpin/blue-pushpin.png</href></Icon></IconStyle></Style><Point><extrude>0</extrude><altitudeMode>clampToGround</altitudeMode><coordinates>-72.009868584573269,18.348685260862112,-0.1143798828125</coordinates></Point></Placemark><Placemark><name>Footpath.4</name><description>Footpath</description><Style><IconStyle><scale>0.9</scale><Icon><href>http://maps.google.com/mapfiles/kml/pushpin/blue-pushpin.png</href></Icon></IconStyle></Style><Point><extrude>0</extrude><altitudeMode>clampToGround</altitudeMode><coordinates>-72.016384927555919,18.348006410524249,-0.1143798828125</coordinates></Point></Placemark><Placemark><name>Footpath.5</name><description>Footpath</description><Style><IconStyle><scale>0.9</scale><Icon><href>http://maps.google.com/mapfiles/kml/pushpin/blue-pushpin.png</href></Icon></IconStyle></Style><Point><extrude>0</extrude><altitudeMode>clampToGround</altitudeMode><coordinates>-72.04619281925261,18.341373642906547,-0.1143798828125</coordinates></Point></Placemark><Placemark><name>Kenscoff</name><description>Kenscoff</description><Style><IconStyle><scale>0.9</scale><Icon><href>http://maps.google.com/mapfiles/kml/pushpin/blue-pushpin.png</href></Icon></IconStyle></Style><Point><extrude>0</extrude><altitudeMode>clampToGround</altitudeMode><coordinates>-72.284360993653536,18.449521064758301,-0.1143798828125</coordinates></Point></Placemark><Placemark><name>Main Road</name><description>Main Road</description><Style><IconStyle><scale>0.9</scale><Icon><href>http://maps.google.com/mapfiles/kml/pushpin/blue-pushpin.png</href></Icon></IconStyle></Style><Point><extrude>0</extrude><altitudeMode>clampToGround</altitudeMode><coordinates>-72.097403733059764,18.339162832126021,-0.1143798828125</coordinates></Point></Placemark><Placemark><name>Main Road.1</name><description>Main Road</description><Style><IconStyle><scale>0.9</scale><Icon><href>http://maps.google.com/mapfiles/kml/pushpin/blue-pushpin.png</href></Icon></IconStyle></Style><Point><extrude>0</extrude><altitudeMode>clampToGround</altitudeMode><coordinates>-72.16933362185955,18.32008964382112,-0.1143798828125</coordinates></Point></Placemark><Placemark><name>Main Road.2</name><description>Main Road</description><Style><IconStyle><scale>0.9</scale><Icon><href>http://maps.google.com/mapfiles/kml/pushpin/blue-pushpin.png</href></Icon></IconStyle></Style><Point><extrude>0</extrude><altitudeMode>clampToGround</altitudeMode><coordinates>-72.274663718417287,18.337433477863669,-0.1143798828125</coordinates></Point></Placemark><Placemark><name>Main Road.3</name><description>Main Road</description><Style><IconStyle><scale>0.9</scale><Icon><href>http://maps.google.com/mapfiles/kml/pushpin/blue-pushpin.png</href></Icon></IconStyle></Style><Point><extrude>0</extrude><altitudeMode>clampToGround</altitudeMode><coordinates>-72.262261686846614,18.325279299169779,-0.1143798828125</coordinates></Point></Placemark><Placemark><name>Mapou (Aprx)</name><description>Mapou (Aprx)</description><Style><IconStyle><scale>0.9</scale><Icon><href>http://maps.google.com/mapfiles/kml/pushpin/blue-pushpin.png</href></Icon></IconStyle></Style><Point><extrude>0</extrude><altitudeMode>clampToGround</altitudeMode><coordinates>-72.053044438362122,18.302863826975226,-0.1143798828125</coordinates></Point></Placemark><Placemark><name>Marche</name><description>Marche</description><Style><IconStyle><scale>0.9</scale><Icon><href>http://maps.google.com/mapfiles/kml/pushpin/blue-pushpin.png</href></Icon></IconStyle></Style><Point><extrude>0</extrude><altitudeMode>clampToGround</altitudeMode><coordinates>-72.237131064757705,18.315070057287812,-0.1143798828125</coordinates></Point></Placemark><Placemark><name>Mare R</name><description>09-DEC-12 1:13:50PM</description><Style><IconStyle><scale>0.9</scale><Icon><href>http://maps.google.com/mapfiles/kml/pushpin/blue-pushpin.png</href></Icon></IconStyle></Style><Point><extrude>0</extrude><altitudeMode>clampToGround</altitudeMode><coordinates>-72.054551588371396,18.338959068059921,1945.5791015625</coordinates></Point></Placemark><Placemark><name>Mare Rouge Cle</name><description>Mare Rouge Clearing</description><Style><IconStyle><scale>0.9</scale><Icon><href>http://maps.google.com/mapfiles/kml/pushpin/blue-pushpin.png</href></Icon></IconStyle></Style><Point><extrude>0</extrude><altitudeMode>clampToGround</altitudeMode><coordinates>-72.055169753730297,18.341347659006715,-0.1143798828125</coordinates></Point></Placemark><Placemark><name>Mare Rouge Pat</name><description>Mare Rouge Pathway Meetup</description><Style><IconStyle><scale>0.9</scale><Icon><href>http://maps.google.com/mapfiles/kml/pushpin/blue-pushpin.png</href></Icon></IconStyle></Style><Point><extrude>0</extrude><altitudeMode>clampToGround</altitudeMode><coordinates>-71.994079425930977,18.342255167663097,-0.1143798828125</coordinates></Point></Placemark><Placemark><name>Marigot Port</name><description>08-DEC-12 12:55:58PM</description><Style><IconStyle><scale>0.9</scale><Icon><href>http://maps.google.com/mapfiles/kml/pushpin/blue-pushpin.png</href></Icon></IconStyle></Style><Point><extrude>0</extrude><altitudeMode>clampToGround</altitudeMode><coordinates>-72.321727517992258,18.229831550270319,2.5291748046875</coordinates></Point></Placemark><Placemark><name>Mr Path</name><description>09-DEC-12 10:31:04AM</description><Style><IconStyle><scale>0.9</scale><Icon><href>http://maps.google.com/mapfiles/kml/pushpin/blue-pushpin.png</href></Icon></IconStyle></Style><Point><extrude>0</extrude><altitudeMode>clampToGround</altitudeMode><coordinates>-72.056006602942944,18.305051503702998,1210.656982421875</coordinates></Point></Placemark><Placemark><name>Path</name><description>Path</description><Style><IconStyle><scale>0.9</scale><Icon><href>http://maps.google.com/mapfiles/kml/pushpin/blue-pushpin.png</href></Icon></IconStyle></Style><Point><extrude>0</extrude><altitudeMode>clampToGround</altitudeMode><coordinates>-72.04907082952559,18.264556936919689,-0.1143798828125</coordinates></Point></Placemark><Placemark><name>Path End (Aprx</name><description>Path End (Aprx)</description><Style><IconStyle><scale>0.9</scale><Icon><href>http://maps.google.com/mapfiles/kml/pushpin/blue-pushpin.png</href></Icon></IconStyle></Style><Point><extrude>0</extrude><altitudeMode>clampToGround</altitudeMode><coordinates>-72.044589444994926,18.3237533736974,-0.1143798828125</coordinates></Point></Placemark><Placemark><name>Pathway Meetup</name><description>Pathway Meetup</description><Style><IconStyle><scale>0.9</scale><Icon><href>http://maps.google.com/mapfiles/kml/pushpin/blue-pushpin.png</href></Icon></IconStyle></Style><Point><extrude>0</extrude><altitudeMode>clampToGround</altitudeMode><coordinates>-72.04856850206852,18.258473183959723,-0.1143798828125</coordinates></Point></Placemark><Placemark><name>Petionville</name><description>Petionville</description><Style><IconStyle><scale>0.9</scale><Icon><href>http://maps.google.com/mapfiles/kml/pushpin/blue-pushpin.png</href></Icon></IconStyle></Style><Point><extrude>0</extrude><altitudeMode>clampToGround</altitudeMode><coordinates>-72.283325409516692,18.512353487312794,-0.1143798828125</coordinates></Point></Placemark><Placemark><name>Pic start</name><description>09-DEC-12 2:22:39PM</description><Style><IconStyle><scale>0.9</scale><Icon><href>http://maps.google.com/mapfiles/kml/pushpin/blue-pushpin.png</href></Icon></IconStyle></Style><Point><extrude>0</extrude><altitudeMode>clampToGround</altitudeMode><coordinates>-72.055719355121255,18.342566471546888,1988.1171875</coordinates></Point></Placemark><Placemark><name>Piclaselle</name><description>09-DEC-12 5:12:33PM</description><Style><IconStyle><scale>0.9</scale><Icon><href>http://maps.google.com/mapfiles/kml/pushpin/blue-pushpin.png</href></Icon></IconStyle></Style><Point><extrude>0</extrude><altitudeMode>clampToGround</altitudeMode><coordinates>-71.976383300498128,18.359999991953373,1990.7607421875</coordinates></Point></Placemark><Placemark><name>Pics1</name><description>09-DEC-12 6:03:38AM</description><Style><IconStyle><scale>0.9</scale><Icon><href>http://maps.google.com/mapfiles/kml/pushpin/blue-pushpin.png</href></Icon></IconStyle></Style><Point><extrude>0</extrude><altitudeMode>clampToGround</altitudeMode><coordinates>-72.052635569125414,18.261531740427017,417.5751953125</coordinates></Point></Placemark><Placemark><name>Rest</name><description>09-DEC-12 12:05:57PM</description><Style><IconStyle><scale>0.9</scale><Icon><href>http://maps.google.com/mapfiles/kml/pushpin/blue-pushpin.png</href></Icon></IconStyle></Style><Point><extrude>0</extrude><altitudeMode>clampToGround</altitudeMode><coordinates>-72.06656469963491,18.325086096301675,1622.33837890625</coordinates></Point></Placemark><Placemark><name>Road Interse 1</name><description>Road Intersection</description><Style><IconStyle><scale>0.9</scale><Icon><href>http://maps.google.com/mapfiles/kml/pushpin/blue-pushpin.png</href></Icon></IconStyle></Style><Point><extrude>0</extrude><altitudeMode>clampToGround</altitudeMode><coordinates>-72.069425443187356,18.346524573862553,-0.1143798828125</coordinates></Point></Placemark><Placemark><name>Road Interse 2</name><description>Road Intersection</description><Style><IconStyle><scale>0.9</scale><Icon><href>http://maps.google.com/mapfiles/kml/pushpin/blue-pushpin.png</href></Icon></IconStyle></Style><Point><extrude>0</extrude><altitudeMode>clampToGround</altitudeMode><coordinates>-72.216126099228859,18.321765186265111,-0.1143798828125</coordinates></Point></Placemark><Placemark><name>Road Interse 3</name><description>Road Intersection</description><Style><IconStyle><scale>0.9</scale><Icon><href>http://maps.google.com/mapfiles/kml/pushpin/blue-pushpin.png</href></Icon></IconStyle></Style><Point><extrude>0</extrude><altitudeMode>clampToGround</altitudeMode><coordinates>-72.138148583471775,18.333089724183083,-0.1143798828125</coordinates></Point></Placemark><Placemark><name>Road Interse 4</name><description>Road Intersection</description><Style><IconStyle><scale>0.9</scale><Icon><href>http://maps.google.com/mapfiles/kml/pushpin/blue-pushpin.png</href></Icon></IconStyle></Style><Point><extrude>0</extrude><altitudeMode>clampToGround</altitudeMode><coordinates>-72.144785039126873,18.334221951663494,-0.1143798828125</coordinates></Point></Placemark><Placemark><name>Road Interse 5</name><description>Road Intersection</description><Style><IconStyle><scale>0.9</scale><Icon><href>http://maps.google.com/mapfiles/kml/pushpin/blue-pushpin.png</href></Icon></IconStyle></Style><Point><extrude>0</extrude><altitudeMode>clampToGround</altitudeMode><coordinates>-72.227428760379553,18.321265457198024,-0.1143798828125</coordinates></Point></Placemark><Placemark><name>Road Interse 6</name><description>Road Intersection</description><Style><IconStyle><scale>0.9</scale><Icon><href>http://maps.google.com/mapfiles/kml/pushpin/blue-pushpin.png</href></Icon></IconStyle></Style><Point><extrude>0</extrude><altitudeMode>clampToGround</altitudeMode><coordinates>-72.158546280115843,18.327410649508238,-0.1143798828125</coordinates></Point></Placemark><Placemark><name>Road Intersect</name><description>Road Intersection</description><Style><IconStyle><scale>0.9</scale><Icon><href>http://maps.google.com/mapfiles/kml/pushpin/blue-pushpin.png</href></Icon></IconStyle></Style><Point><extrude>0</extrude><altitudeMode>clampToGround</altitudeMode><coordinates>-72.084531141445041,18.343310030177236,-0.1143798828125</coordinates></Point></Placemark><Placemark><name>Road Start Bel</name><description>Road Start Belle Anse</description><Style><IconStyle><scale>0.9</scale><Icon><href>http://maps.google.com/mapfiles/kml/pushpin/blue-pushpin.png</href></Icon></IconStyle></Style><Point><extrude>0</extrude><altitudeMode>clampToGround</altitudeMode><coordinates>-72.066460009664297,18.24184357188642,-0.1143798828125</coordinates></Point></Placemark><Placemark><name>Short To Ls</name><description>09-DEC-12 9:10:20AM</description><Style><IconStyle><scale>0.9</scale><Icon><href>http://maps.google.com/mapfiles/kml/pushpin/blue-pushpin.png</href></Icon></IconStyle></Style><Point><extrude>0</extrude><altitudeMode>clampToGround</altitudeMode><coordinates>-72.051752116531134,18.296137433499098,1050.8388671875</coordinates></Point></Placemark><Placemark><name>Shortcut</name><description>Shortcut</description><Style><IconStyle><scale>0.9</scale><Icon><href>http://maps.google.com/mapfiles/kml/pushpin/blue-pushpin.png</href></Icon></IconStyle></Style><Point><extrude>0</extrude><altitudeMode>clampToGround</altitudeMode><coordinates>-72.057796306908131,18.248473154380918,-0.1143798828125</coordinates></Point></Placemark><Placemark><name>View</name><description>10-DEC-12 9:01:37AM</description><Style><IconStyle><scale>0.9</scale><Icon><href>http://maps.google.com/mapfiles/kml/pushpin/blue-pushpin.png</href></Icon></IconStyle></Style><Point><extrude>0</extrude><altitudeMode>clampToGround</altitudeMode><coordinates>-71.982432771474123,18.35871278308332,2576.920166015625</coordinates></Point></Placemark></Folder></Document></kml>